{"type":"FeatureCollection","totalFeatures":99,"features":[{"type":"Feature","id":"stores.1","geometry":{"type":"Point","coordinates":[127.09015768227955,37.59703452023927]},"geometry_name":"the_geom","properties":{"BRAND":"코스트코","SOTRE":"상봉점","NAM":"코스트코 상봉점","ADDR":"서울특별시 중랑구 상봉동 81","TEL":"02-439-1144"}},{"type":"Feature","id":"stores.2","geometry":{"type":"Point","coordinates":[127.00785359122122,37.50842535861154]},"geometry_name":"the_geom","properties":{"BRAND":"뉴코아아울렛","SOTRE":"강남점","NAM":"뉴코아아울렛 강남점","ADDR":"서울특별시 서초구 잠원동 70-2","TEL":""}},{"type":"Feature","id":"stores.3","geometry":{"type":"Point","coordinates":[126.85371740286749,37.565415181275036]},"geometry_name":"the_geom","properties":{"BRAND":"킴스클럽마트","SOTRE":"가양점","NAM":"킴스클럽마트 가양점","ADDR":"서울특별시 강서구 가양동 1474","TEL":"02-2659-8376"}},{"type":"Feature","id":"stores.4","geometry":{"type":"Point","coordinates":[126.85378324238386,37.491723442876214]},"geometry_name":"the_geom","properties":{"BRAND":"킴스클럽마트","SOTRE":"개봉점","NAM":"킴스클럽마트 개봉점","ADDR":"서울특별시 구로구 개봉동 324-1","TEL":"_02) 2684-2013"}},{"type":"Feature","id":"stores.5","geometry":{"type":"Point","coordinates":[127.14932245280708,37.552002249323735]},"geometry_name":"the_geom","properties":{"BRAND":"킴스클럽마트","SOTRE":"고덕점","NAM":"킴스클럽마트 고덕점","ADDR":"서울특별시 강동구 명일동 15","TEL":"02-3426-6155"}},{"type":"Feature","id":"stores.6","geometry":{"type":"Point","coordinates":[127.05279527881146,37.56779884976232]},"geometry_name":"the_geom","properties":{"BRAND":"킴스클럽마트","SOTRE":"답십리점","NAM":"킴스클럽마트 답십리점","ADDR":"서울특별시 동대문구 답십리동 530-11","TEL":""}},{"type":"Feature","id":"stores.7","geometry":{"type":"Point","coordinates":[126.97483612746225,37.49008626721487]},"geometry_name":"the_geom","properties":{"BRAND":"킴스클럽마트","SOTRE":"동작점","NAM":"킴스클럽마트 동작점","ADDR":"서울특별시 동작구 사당동 105","TEL":"_02-596-9584"}},{"type":"Feature","id":"stores.8","geometry":{"type":"Point","coordinates":[127.08623129297276,37.57966988343706]},"geometry_name":"the_geom","properties":{"BRAND":"킴스클럽마트","SOTRE":"면목점","NAM":"킴스클럽마트 면목점","ADDR":"서울특별시 중랑구 면목동 650","TEL":"02) 432-3100"}},{"type":"Feature","id":"stores.9","geometry":{"type":"Point","coordinates":[126.87079291522484,37.53246263783233]},"geometry_name":"the_geom","properties":{"BRAND":"킴스클럽마트","SOTRE":"목동점","NAM":"킴스클럽마트 목동점","ADDR":"서울특별시 양천구 목동 904","TEL":"02-2646-4331"}},{"type":"Feature","id":"stores.10","geometry":{"type":"Point","coordinates":[127.02772368710063,37.48878445966471]},"geometry_name":"the_geom","properties":{"BRAND":"킴스클럽마트","SOTRE":"서초점","NAM":"킴스클럽마트 서초점","ADDR":"서울특별시 서초구 서초동 1335","TEL":"_02-3474-0466"}},{"type":"Feature","id":"stores.11","geometry":{"type":"Point","coordinates":[126.99601267362542,37.594024042817125]},"geometry_name":"the_geom","properties":{"BRAND":"킴스클럽마트","SOTRE":"성북점","NAM":"킴스클럽마트 성북점","ADDR":"서울특별시 성북구 성북동 94-1 성북프라자","TEL":"02-3672-0226"}},{"type":"Feature","id":"stores.12","geometry":{"type":"Point","coordinates":[126.87593220823963,37.52216304092253]},"geometry_name":"the_geom","properties":{"BRAND":"킴스클럽마트","SOTRE":"신정점","NAM":"킴스클럽마트 신정점","ADDR":"서울특별시 양천구 신정동 119-2","TEL":"_02) 2062-9730"}},{"type":"Feature","id":"stores.13","geometry":{"type":"Point","coordinates":[127.13244143936674,37.51553307458288]},"geometry_name":"the_geom","properties":{"BRAND":"킴스클럽마트","SOTRE":"올림픽점","NAM":"킴스클럽마트 올림픽점","ADDR":"서울특별시 송파구 방이동 89-11","TEL":"02-408-1500"}},{"type":"Feature","id":"stores.14","geometry":{"type":"Point","coordinates":[127.08116762059643,37.56401058797913]},"geometry_name":"the_geom","properties":{"BRAND":"킴스클럽마트","SOTRE":"중곡점","NAM":"킴스클럽마트 중곡점","ADDR":"서울특별시 광진구 중곡동 229-1","TEL":"02-463-1903"}},{"type":"Feature","id":"stores.15","geometry":{"type":"Point","coordinates":[127.03487669944995,37.64356028081454]},"geometry_name":"the_geom","properties":{"BRAND":"킴스클럽마트","SOTRE":"창동점","NAM":"킴스클럽마트 창동점","ADDR":"서울특별시 도봉구 창2동 628-20","TEL":"02-903-0900"}},{"type":"Feature","id":"stores.16","geometry":{"type":"Point","coordinates":[127.0835107252107,37.620913157001866]},"geometry_name":"the_geom","properties":{"BRAND":"킴스클럽마트","SOTRE":"화랑점","NAM":"킴스클럽마트 화랑점","ADDR":"서울특별시 노원구 공릉동 89-1","TEL":"02) 948-6767"}},{"type":"Feature","id":"stores.17","geometry":{"type":"Point","coordinates":[126.96203098133456,37.50735241589884]},"geometry_name":"the_geom","properties":{"BRAND":"킴스클럽마트","SOTRE":"흑석점","NAM":"킴스클럽마트 흑석점","ADDR":"서울특별시 동작구 흑석동 97-2","TEL":"_02-813-9643"}},{"type":"Feature","id":"stores.18","geometry":{"type":"Point","coordinates":[126.90086566441155,37.53394339640667]},"geometry_name":"the_geom","properties":{"BRAND":"2001 아울렛","SOTRE":"당산점","NAM":"2001 아울렛 당산점","ADDR":"서울특별시 영등포구 당산동5가 16-7","TEL":"02)2068-2001"}},{"type":"Feature","id":"stores.19","geometry":{"type":"Point","coordinates":[127.06774973337265,37.64139860381551]},"geometry_name":"the_geom","properties":{"BRAND":"2001 아울렛","SOTRE":"중계점","NAM":"2001 아울렛 중계점","ADDR":"서울특별시 노원구 중계2.3동 509","TEL":"02)948-2001"}},{"type":"Feature","id":"stores.20","geometry":{"type":"Point","coordinates":[126.8625056139326,37.49820140514461]},"geometry_name":"the_geom","properties":{"BRAND":"2001 아울렛","SOTRE":"구로점","NAM":"2001 아울렛 구로점","ADDR":"서울특별시 구로구 고척동 76-41","TEL":"02)2064-2001"}},{"type":"Feature","id":"stores.21","geometry":{"type":"Point","coordinates":[127.1257837156256,37.541347695821386]},"geometry_name":"the_geom","properties":{"BRAND":"2001 아울렛","SOTRE":"천호점","NAM":"2001 아울렛 천호점","ADDR":"서울특별시 강동구 천호동 563","TEL":"02) 426 - 2001"}},{"type":"Feature","id":"stores.22","geometry":{"type":"Point","coordinates":[126.92878044113198,37.60988009255123]},"geometry_name":"the_geom","properties":{"BRAND":"2001 아울렛","SOTRE":"불광점","NAM":"2001 아울렛 불광점","ADDR":"서울특별시 은평구 대조동 240","TEL":"02)3417-2001"}},{"type":"Feature","id":"stores.23","geometry":{"type":"Point","coordinates":[126.90392368661065,37.51785762088205]},"geometry_name":"the_geom","properties":{"BRAND":"2001 아울렛","SOTRE":"모던하우스 타임스퀘어점","NAM":"2001 아울렛 모던하우스 타임스퀘어점","ADDR":"서울특별시 영등포구 영등포동4가 441-10","TEL":"02-812-2001"}},{"type":"Feature","id":"stores.24","geometry":{"type":"Point","coordinates":[127.09555548252715,37.53567292989693]},"geometry_name":"the_geom","properties":{"BRAND":"롯데마트","SOTRE":"강변점","NAM":"롯데마트 강변점","ADDR":"서울특별시 광진구 구의동 564-4","TEL":""}},{"type":"Feature","id":"stores.25","geometry":{"type":"Point","coordinates":[126.87260566492476,37.49834757345657]},"geometry_name":"the_geom","properties":{"BRAND":"롯데마트","SOTRE":"구로점","NAM":"롯데마트 구로점","ADDR":"서울특별시 구로구 구로동 636-89","TEL":"02)2639-2500"}},{"type":"Feature","id":"stores.26","geometry":{"type":"Point","coordinates":[126.89563450040274,37.470678436354696]},"geometry_name":"the_geom","properties":{"BRAND":"롯데마트","SOTRE":"금천점","NAM":"롯데마트 금천점","ADDR":"서울특별시 금천구 독산동 295-10","TEL":"02)809-2500"}},{"type":"Feature","id":"stores.27","geometry":{"type":"Point","coordinates":[127.04541188021142,37.66781909745614]},"geometry_name":"the_geom","properties":{"BRAND":"롯데마트","SOTRE":"도봉점","NAM":"롯데마트 도봉점","ADDR":"서울특별시 도봉구 방학1동 717-6","TEL":"02)2289-2500"}},{"type":"Feature","id":"stores.28","geometry":{"type":"Point","coordinates":[126.97033409134289,37.55594656692192]},"geometry_name":"the_geom","properties":{"BRAND":"롯데마트","SOTRE":"서울역점","NAM":"롯데마트 서울역점","ADDR":"서울특별시 중구 봉래동2가 122","TEL":"02)390-2500"}},{"type":"Feature","id":"stores.29","geometry":{"type":"Point","coordinates":[126.90448311748634,37.52788719229182]},"geometry_name":"the_geom","properties":{"BRAND":"롯데마트","SOTRE":"영등포점","NAM":"롯데마트 영등포점","ADDR":"서울특별시 영등포구 영등포동8가 62-1","TEL":"02)2165-2500"}},{"type":"Feature","id":"stores.30","geometry":{"type":"Point","coordinates":[127.09658056811047,37.511247741158535]},"geometry_name":"the_geom","properties":{"BRAND":"롯데마트","SOTRE":"월드점","NAM":"롯데마트 월드점","ADDR":"서울특별시 송파구 잠실동 40-1","TEL":"02)411-8800"}},{"type":"Feature","id":"stores.31","geometry":{"type":"Point","coordinates":[127.07083951395217,37.64690781706729]},"geometry_name":"the_geom","properties":{"BRAND":"롯데마트","SOTRE":"중계점","NAM":"롯데마트 중계점","ADDR":"서울특별시 노원구 중계동 361","TEL":"02)2092-2500"}},{"type":"Feature","id":"stores.32","geometry":{"type":"Point","coordinates":[127.14211317950516,37.5457266837433]},"geometry_name":"the_geom","properties":{"BRAND":"홈플러스","SOTRE":"강동점","NAM":"홈플러스 강동점","ADDR":"서울특별시 강동구 천호동 42","TEL":"02-3400-8000"}},{"type":"Feature","id":"stores.33","geometry":{"type":"Point","coordinates":[126.84995436534817,37.56426927814668]},"geometry_name":"the_geom","properties":{"BRAND":"홈플러스","SOTRE":"가양점","NAM":"홈플러스 가양점","ADDR":"서울특별시 강서구 가양2동 18-24","TEL":"02-2063-2080"}},{"type":"Feature","id":"stores.34","geometry":{"type":"Point","coordinates":[126.85468849261129,37.55858171303414]},"geometry_name":"the_geom","properties":{"BRAND":"홈플러스","SOTRE":"강서점","NAM":"홈플러스 강서점","ADDR":"서울특별시 강서구 등촌동 639-11","TEL":"02-2660-8000"}},{"type":"Feature","id":"stores.35","geometry":{"type":"Point","coordinates":[126.8879004120657,37.5097344874868]},"geometry_name":"the_geom","properties":{"BRAND":"홈플러스","SOTRE":"신도림점","NAM":"홈플러스 신도림점","ADDR":"서울특별시 구로구 신도림동 337","TEL":"02-2618-2080"}},{"type":"Feature","id":"stores.36","geometry":{"type":"Point","coordinates":[126.89670955684575,37.46876181709465]},"geometry_name":"the_geom","properties":{"BRAND":"홈플러스","SOTRE":"금천점","NAM":"홈플러스 금천점","ADDR":"서울특별시 금천구 독산1동 291-7","TEL":"02-890-8000"}},{"type":"Feature","id":"stores.37","geometry":{"type":"Point","coordinates":[126.90066714731216,37.45193881634634]},"geometry_name":"the_geom","properties":{"BRAND":"홈플러스","SOTRE":"시흥점","NAM":"홈플러스 시흥점","ADDR":"서울특별시 금천구 시흥동 992-47","TEL":"02-895-2080"}},{"type":"Feature","id":"stores.38","geometry":{"type":"Point","coordinates":[127.06845946479979,37.63996366955473]},"geometry_name":"the_geom","properties":{"BRAND":"홈플러스","SOTRE":"중계점","NAM":"홈플러스 중계점","ADDR":"서울특별시 노원구 중계2.3동 509-2","TEL":"02-986-2080"}},{"type":"Feature","id":"stores.39","geometry":{"type":"Point","coordinates":[126.86171585203522,37.55827562060543]},"geometry_name":"the_geom","properties":{"BRAND":"이마트","SOTRE":"가양점","NAM":"이마트 가양점","ADDR":"서울특별시 강서구 가양3동 449-19","TEL":"02-2101-1234"}},{"type":"Feature","id":"stores.40","geometry":{"type":"Point","coordinates":[126.89777221493776,37.48444617770124]},"geometry_name":"the_geom","properties":{"BRAND":"이마트","SOTRE":"구로점","NAM":"이마트 구로점","ADDR":"서울특별시 구로구 구로3동 188-26","TEL":"02-2009-1234"}},{"type":"Feature","id":"stores.41","geometry":{"type":"Point","coordinates":[127.0728586851975,37.5386034693251]},"geometry_name":"the_geom","properties":{"BRAND":"이마트","SOTRE":"자양점","NAM":"이마트 자양점","ADDR":"서울특별시 광진구 자양3동 227-7","TEL":"02-2024-1234"}},{"type":"Feature","id":"stores.42","geometry":{"type":"Point","coordinates":[126.89015820168018,37.5071269411249]},"geometry_name":"the_geom","properties":{"BRAND":"이마트","SOTRE":"신도림점","NAM":"이마트 신도림점","ADDR":"서울특별시 구로구 구로5동 3-25","TEL":"02-6715-1234"}},{"type":"Feature","id":"stores.43","geometry":{"type":"Point","coordinates":[126.92663651160957,37.518215313453865]},"geometry_name":"the_geom","properties":{"BRAND":"이마트","SOTRE":"여의도점","NAM":"이마트 여의도점","ADDR":"서울특별시 영등포구 여의도동 47","TEL":"02-2280-1234"}},{"type":"Feature","id":"stores.44","geometry":{"type":"Point","coordinates":[127.02202506825857,37.570859831641485]},"geometry_name":"the_geom","properties":{"BRAND":"이마트","SOTRE":"청계천점","NAM":"이마트 청계천점","ADDR":"서울특별시 중구 황학동 2545","TEL":"02-2290-1234"}},{"type":"Feature","id":"stores.45","geometry":{"type":"Point","coordinates":[127.03740492545239,37.56353378688998]},"geometry_name":"the_geom","properties":{"BRAND":"이마트","SOTRE":"왕십리점","NAM":"이마트 왕십리점","ADDR":"서울특별시 성동구 행당동 168-1","TEL":"02-2200-1234"}},{"type":"Feature","id":"stores.46","geometry":{"type":"Point","coordinates":[127.02973826364547,37.610965004245266]},"geometry_name":"the_geom","properties":{"BRAND":"이마트","SOTRE":"미아점","NAM":"이마트 미아점","ADDR":"서울특별시 성북구 길음동 25-2","TEL":"02-944-1234"}},{"type":"Feature","id":"stores.47","geometry":{"type":"Point","coordinates":[127.06177465528661,37.598632265312695]},"geometry_name":"the_geom","properties":{"BRAND":"이마트","SOTRE":"이문점","NAM":"이마트 이문점","ADDR":"서울특별시 동대문구 이문동 292-10","TEL":"02-959-1234"}},{"type":"Feature","id":"stores.48","geometry":{"type":"Point","coordinates":[126.87023515179644,37.52583033861907]},"geometry_name":"the_geom","properties":{"BRAND":"이마트","SOTRE":"목동점","NAM":"이마트 목동점","ADDR":"서울특별시 양천구 목동 962","TEL":"02)6923-1234"}},{"type":"Feature","id":"stores.49","geometry":{"type":"Point","coordinates":[126.903515992209,37.51784910571232]},"geometry_name":"the_geom","properties":{"BRAND":"이마트","SOTRE":"영등포점","NAM":"이마트 영등포점","ADDR":"서울특별시 영등포구 영등포동4가 442","TEL":"02-3468-1234"}},{"type":"Feature","id":"stores.50","geometry":{"type":"Point","coordinates":[126.8984936878898,37.579799301617925]},"geometry_name":"the_geom","properties":{"BRAND":"이마트","SOTRE":"수색점","NAM":"이마트 수색점","ADDR":"서울특별시 은평구 수색동 76-14","TEL":"02-6943-1234"}},{"type":"Feature","id":"stores.51","geometry":{"type":"Point","coordinates":[127.09342460270422,37.596669032222906]},"geometry_name":"the_geom","properties":{"BRAND":"이마트","SOTRE":"상봉점","NAM":"이마트 상봉점","ADDR":"서울특별시 중랑구 망우본동 506-1","TEL":"(02)490-1234"}},{"type":"Feature","id":"stores.52","geometry":{"type":"Point","coordinates":[126.8283711631562,37.53986795871623]},"geometry_name":"the_geom","properties":{"BRAND":"이마트","SOTRE":"신월점","NAM":"이마트 신월점","ADDR":"서울특별시 양천구 신월동 26","TEL":"(02)2697-7123"}},{"type":"Feature","id":"stores.53","geometry":{"type":"Point","coordinates":[127.04704833780197,37.651868397087014]},"geometry_name":"the_geom","properties":{"BRAND":"이마트","SOTRE":"창동점","NAM":"이마트 창동점","ADDR":"서울특별시 도봉구 창5동 135-3","TEL":"(02)901-1234"}},{"type":"Feature","id":"stores.54","geometry":{"type":"Point","coordinates":[127.12549945564035,37.53868495361885]},"geometry_name":"the_geom","properties":{"BRAND":"이마트","SOTRE":"천호점","NAM":"이마트 천호점","ADDR":"서울특별시 강동구 천호2동 454-1","TEL":"(02)2224-1234"}},{"type":"Feature","id":"stores.55","geometry":{"type":"Point","coordinates":[127.0533483652058,37.53998139442138]},"geometry_name":"the_geom","properties":{"BRAND":"이마트","SOTRE":"성수점","NAM":"이마트 성수점","ADDR":"서울특별시 성동구 성수동2가 333-16","TEL":"(02)3408-1234"}},{"type":"Feature","id":"stores.56","geometry":{"type":"Point","coordinates":[127.10294857287926,37.48750844995845]},"geometry_name":"the_geom","properties":{"BRAND":"이마트","SOTRE":"수서점","NAM":"이마트 수서점","ADDR":"서울특별시 강남구 수서동 724","TEL":"(02)451-6123"}},{"type":"Feature","id":"stores.57","geometry":{"type":"Point","coordinates":[126.92014669147993,37.60048474029336]},"geometry_name":"the_geom","properties":{"BRAND":"이마트","SOTRE":"은평점","NAM":"이마트 은평점","ADDR":"서울특별시 은평구 응암동 90-1","TEL":"(02)380-1234"}},{"type":"Feature","id":"stores.58","geometry":{"type":"Point","coordinates":[127.15570793277458,37.55472810000304]},"geometry_name":"the_geom","properties":{"BRAND":"이마트","SOTRE":"명일점","NAM":"이마트 명일점","ADDR":"서울특별시 강동구 명일2동 46-4","TEL":"(02)2145-1234"}},{"type":"Feature","id":"stores.59","geometry":{"type":"Point","coordinates":[126.79856618486349,37.56102190861877]},"geometry_name":"the_geom","properties":{"BRAND":"이마트","SOTRE":"공항점","NAM":"이마트 공항점","ADDR":"서울특별시 강서구 과해동 676","TEL":"(02)2166-1234"}},{"type":"Feature","id":"stores.60","geometry":{"type":"Point","coordinates":[127.06179018853196,37.62664450514346]},"geometry_name":"the_geom","properties":{"BRAND":"이마트","SOTRE":"월계점","NAM":"이마트 월계점","ADDR":"서울특별시 노원구 월계3동 333-1","TEL":"02) 2092-1234"}},{"type":"Feature","id":"stores.61","geometry":{"type":"Point","coordinates":[126.96543156103178,37.529651882356646]},"geometry_name":"the_geom","properties":{"BRAND":"이마트","SOTRE":"용산점","NAM":"이마트 용산점","ADDR":"서울특별시 용산구 한강로3가 40-999","TEL":"02) 2012-1234"}},{"type":"Feature","id":"stores.62","geometry":{"type":"Point","coordinates":[127.03675245967233,37.46357760464678]},"geometry_name":"the_geom","properties":{"BRAND":"이마트","SOTRE":"양재점","NAM":"이마트 양재점","ADDR":"서울특별시 서초구 양재동 215","TEL":"02)2155-1234"}},{"type":"Feature","id":"stores.63","geometry":{"type":"Point","coordinates":[127.04827445841137,37.49943371549627]},"geometry_name":"the_geom","properties":{"BRAND":"이마트","SOTRE":"역삼점","NAM":"이마트 역삼점","ADDR":"서울특별시 강남구 역삼동 755","TEL":"02-6908-1234"}},{"type":"Feature","id":"stores.64","geometry":{"type":"Point","coordinates":[126.89203063490504,37.52775357121254]},"geometry_name":"the_geom","properties":{"BRAND":"코스트코","SOTRE":"양평점","NAM":"코스트코 양평점","ADDR":"서울특별시 영등포구 양평동3가 65","TEL":"02-2679-1234"}},{"type":"Feature","id":"stores.65","geometry":{"type":"Point","coordinates":[127.03603366145177,37.46204046560665]},"geometry_name":"the_geom","properties":{"BRAND":"코스트코","SOTRE":"양재점","NAM":"코스트코 양재점","ADDR":"서울특별시 서초구 양재동 217-6","TEL":"02-572-5959"}},{"type":"Feature","id":"stores.66","geometry":{"type":"Point","coordinates":[127.04355049274393,37.66497401445769]},"geometry_name":"the_geom","properties":{"BRAND":"홈플러스","SOTRE":"방학점","NAM":"홈플러스 방학점","ADDR":"서울특별시 도봉구 방학동 707-7","TEL":"02-912-2080"}},{"type":"Feature","id":"stores.67","geometry":{"type":"Point","coordinates":[127.0386492424011,37.57467382210786]},"geometry_name":"the_geom","properties":{"BRAND":"홈플러스","SOTRE":"동대문점","NAM":"홈플러스 동대문점","ADDR":"서울특별시 동대문구 용두동 33-1","TEL":"02-2173-8000"}},{"type":"Feature","id":"stores.68","geometry":{"type":"Point","coordinates":[126.8981988801081,37.56806477106747]},"geometry_name":"the_geom","properties":{"BRAND":"홈플러스","SOTRE":"월드컵점","NAM":"홈플러스 월드컵점","ADDR":"서울특별시 마포구 성산동 515-1","TEL":"02-312-2080"}},{"type":"Feature","id":"stores.69","geometry":{"type":"Point","coordinates":[127.1028728971197,37.51635816040207]},"geometry_name":"the_geom","properties":{"BRAND":"홈플러스","SOTRE":"잠실점","NAM":"홈플러스 잠실점","ADDR":"서울특별시 송파구 신천동 7-12","TEL":"02-3468-8000"}},{"type":"Feature","id":"stores.70","geometry":{"type":"Point","coordinates":[126.87314112484012,37.53036038216155]},"geometry_name":"the_geom","properties":{"BRAND":"홈플러스","SOTRE":"목동점","NAM":"홈플러스 목동점","ADDR":"서울특별시 양천구 목1동 919-7","TEL":"02-2644-2080"}},{"type":"Feature","id":"stores.71","geometry":{"type":"Point","coordinates":[126.8957705520532,37.51828374226088]},"geometry_name":"the_geom","properties":{"BRAND":"홈플러스","SOTRE":"영등포점","NAM":"홈플러스 영등포점","ADDR":"서울특별시 영등포구 문래동3가 55-3","TEL":"02-2165-8000"}},{"type":"Feature","id":"stores.72","geometry":{"type":"Point","coordinates":[127.08184320222635,37.58065612634059]},"geometry_name":"the_geom","properties":{"BRAND":"홈플러스","SOTRE":"면목점","NAM":"홈플러스 면목점","ADDR":"서울특별시 중랑구 면목5동 168-2","TEL":"02-437-2080"}},{"type":"Feature","id":"stores.73","geometry":{"type":"Point","coordinates":[127.09363062138073,37.61584653658068]},"geometry_name":"the_geom","properties":{"BRAND":"홈플러스","SOTRE":"신내점","NAM":"홈플러스 신내점","ADDR":"서울특별시 중랑구 신내동 645","TEL":"02-2024-8000"}},{"type":"Feature","id":"stores.74","geometry":{"type":"Point","coordinates":[126.98149722384419,37.56431548712311]},"geometry_name":"the_geom","properties":{"BRAND":"롯데백화점","SOTRE":"본점","NAM":"롯데백화점 본점","ADDR":"서울특별시 중구 소공동 1","TEL":"02-771-2500"}},{"type":"Feature","id":"stores.75","geometry":{"type":"Point","coordinates":[127.09910181074596,37.512286038492725]},"geometry_name":"the_geom","properties":{"BRAND":"롯데백화점","SOTRE":"잠실점","NAM":"롯데백화점 잠실점","ADDR":"서울특별시 송파구 잠실동 40-1","TEL":"02-411-2500"}},{"type":"Feature","id":"stores.76","geometry":{"type":"Point","coordinates":[126.90746958395198,37.516155710069654]},"geometry_name":"the_geom","properties":{"BRAND":"롯데백화점","SOTRE":"영등포점","NAM":"롯데백화점 영등포점","ADDR":"서울특별시 영등포구 영등포동 618-496","TEL":"02-2632-2500"}},{"type":"Feature","id":"stores.77","geometry":{"type":"Point","coordinates":[127.04593934533469,37.57992020197535]},"geometry_name":"the_geom","properties":{"BRAND":"롯데백화점","SOTRE":"청량리점","NAM":"롯데백화점 청량리점","ADDR":"서울특별시 동대문구 전농동 620-69","TEL":"02-96-2500"}},{"type":"Feature","id":"stores.78","geometry":{"type":"Point","coordinates":[126.92495205698076,37.49059568304075]},"geometry_name":"the_geom","properties":{"BRAND":"롯데백화점","SOTRE":"관악점","NAM":"롯데백화점 관악점","ADDR":"서울특별시 관악구 봉천동 729-22","TEL":"02-833-2500"}},{"type":"Feature","id":"stores.79","geometry":{"type":"Point","coordinates":[127.05315379029217,37.4970117631622]},"geometry_name":"the_geom","properties":{"BRAND":"롯데백화점","SOTRE":"강남점","NAM":"롯데백화점 강남점","ADDR":"서울특별시 강남구 대치동 937","TEL":"02-531-2500"}},{"type":"Feature","id":"stores.80","geometry":{"type":"Point","coordinates":[127.0609660977398,37.655209879166556]},"geometry_name":"the_geom","properties":{"BRAND":"롯데백화점","SOTRE":"노원점","NAM":"롯데백화점 노원점","ADDR":"서울특별시 노원구 상계동 713","TEL":"02-950-2500"}},{"type":"Feature","id":"stores.81","geometry":{"type":"Point","coordinates":[126.98137385614346,37.56364788921612]},"geometry_name":"the_geom","properties":{"BRAND":"롯데백화점","SOTRE":"명동점(영플라자)","NAM":"롯데백화점 명동점(영플라자)","ADDR":"서울특별시 중구 소공동 123","TEL":"02-771-2500"}},{"type":"Feature","id":"stores.82","geometry":{"type":"Point","coordinates":[127.030355092668,37.61476399076315]},"geometry_name":"the_geom","properties":{"BRAND":"롯데백화점","SOTRE":"미아점","NAM":"롯데백화점 미아점","ADDR":"서울특별시 강북구 미아4동 70-6","TEL":"02-944-2500"}},{"type":"Feature","id":"stores.83","geometry":{"type":"Point","coordinates":[127.07093822445073,37.53898201948393]},"geometry_name":"the_geom","properties":{"BRAND":"롯데백화점","SOTRE":"건대 스타시티점","NAM":"롯데백화점 건대 스타시티점","ADDR":"서울특별시 광진구 자양동 227-342","TEL":"02-2218-2500"}},{"type":"Feature","id":"stores.84","geometry":{"type":"Point","coordinates":[127.02736350263541,37.52749151570198]},"geometry_name":"the_geom","properties":{"BRAND":"현대백화점","SOTRE":"압구정본점","NAM":"현대백화점 압구정본점","ADDR":"서울 강남구 압구정동 429","TEL":"02-547-2233"}},{"type":"Feature","id":"stores.85","geometry":{"type":"Point","coordinates":[127.05964141867453,37.50874090934931]},"geometry_name":"the_geom","properties":{"BRAND":"현대백화점","SOTRE":"무역센터점","NAM":"현대백화점 무역센터점","ADDR":"서울시 강남구 삼성동 159-7","TEL":"02-552-2233"}},{"type":"Feature","id":"stores.86","geometry":{"type":"Point","coordinates":[127.12429246256805,37.538952917835424]},"geometry_name":"the_geom","properties":{"BRAND":"현대백화점","SOTRE":"천호점","NAM":"현대백화점 천호점","ADDR":"서울시 강동구 천호2동 455-8","TEL":"02-488-2233"}},{"type":"Feature","id":"stores.87","geometry":{"type":"Point","coordinates":[126.9356747537336,37.55621404749716]},"geometry_name":"the_geom","properties":{"BRAND":"현대백화점","SOTRE":"신촌점","NAM":"현대백화점 신촌점","ADDR":"서울시 서대문구 창천동 30-33","TEL":"02-3145-2233"}},{"type":"Feature","id":"stores.88","geometry":{"type":"Point","coordinates":[127.0285956974963,37.6085469716125]},"geometry_name":"the_geom","properties":{"BRAND":"현대백화점","SOTRE":"미아점","NAM":"현대백화점 미아점","ADDR":"서울시 성북구 길음동 20-1","TEL":"02-2117-2233"}},{"type":"Feature","id":"stores.89","geometry":{"type":"Point","coordinates":[126.8750362656951,37.52659193124506]},"geometry_name":"the_geom","properties":{"BRAND":"현대백화점","SOTRE":"목동점","NAM":"현대백화점 목동점","ADDR":"서울시 양천구 목동 916","TEL":"02-2163-2233"}},{"type":"Feature","id":"stores.90","geometry":{"type":"Point","coordinates":[126.98097157809012,37.56103271848508]},"geometry_name":"the_geom","properties":{"BRAND":"신세계백화점","SOTRE":"본점","NAM":"신세계백화점 본점","ADDR":"서울 중구 충무로1가 52-5","TEL":"1588-1234"}},{"type":"Feature","id":"stores.91","geometry":{"type":"Point","coordinates":[127.00413076834599,37.50515285379692]},"geometry_name":"the_geom","properties":{"BRAND":"신세계백화점","SOTRE":"강남점","NAM":"신세계백화점 강남점","ADDR":"서울 서초구 반포동 19-3","TEL":"1588-1234"}},{"type":"Feature","id":"stores.92","geometry":{"type":"Point","coordinates":[126.90547400660046,37.51727898012557]},"geometry_name":"the_geom","properties":{"BRAND":"신세계백화점","SOTRE":"영등포점","NAM":"신세계백화점 영등포점","ADDR":"서울 영등포구 영등포동4가 434-5","TEL":"1588-1234"}},{"type":"Feature","id":"stores.93","geometry":{"type":"Point","coordinates":[127.0399590727979,37.528525459777384]},"geometry_name":"the_geom","properties":{"BRAND":"갤러리아백화점","SOTRE":"명품관 WEST","NAM":"갤러리아백화점 명품관 WEST","ADDR":"서울 강남구 압구정동 494","TEL":"02-3449-4114"}},{"type":"Feature","id":"stores.94","geometry":{"type":"Point","coordinates":[127.03995907361434,37.52853396871485]},"geometry_name":"the_geom","properties":{"BRAND":"갤러리아백화점","SOTRE":"명품관 EAST","NAM":"갤러리아백화점 명품관 EAST","ADDR":"서울 강남구 압구정동 515","TEL":"02-3449-4114"}},{"type":"Feature","id":"stores.95","geometry":{"type":"Point","coordinates":[126.9706399180672,37.553161022210084]},"geometry_name":"the_geom","properties":{"BRAND":"갤러리아백화점","SOTRE":"콩코스","NAM":"갤러리아백화점 콩코스","ADDR":"서울 용산구 동자동 43-205","TEL":"02-390-4114"}},{"type":"Feature","id":"stores.96","geometry":{"type":"Point","coordinates":[126.88267566561744,37.50115949418995]},"geometry_name":"the_geom","properties":{"BRAND":"AK플라자","SOTRE":"구로본점","NAM":"AK플라자 구로본점","ADDR":"서울특별시 구로구 구로5동 573","TEL":"02-818-1000"}},{"type":"Feature","id":"stores.97","geometry":{"type":"Point","coordinates":[126.93586252978173,37.555112605225474]},"geometry_name":"the_geom","properties":{"BRAND":"그랜드백화점","SOTRE":"신촌점","NAM":"그랜드백화점 신촌점","ADDR":"서울시 마포구 노고산동 57-1","TEL":"02-326-0101"}},{"type":"Feature","id":"stores.98","geometry":{"type":"Point","coordinates":[126.83920146169021,37.56032928154804]},"geometry_name":"the_geom","properties":{"BRAND":"그랜드백화점","SOTRE":"강서점","NAM":"그랜드백화점 강서점","ADDR":"서울시 강서구 등촌3동 678-14","TEL":"02-3665-0101"}},{"type":"Feature","id":"stores.99","geometry":{"type":"Point","coordinates":[127.01037934648363,37.55226842581986]},"geometry_name":"the_geom","properties":{"BRAND":"그랜드백화점","SOTRE":"신당점","NAM":"그랜드백화점 신당점","ADDR":"서울시 중구 신당동 366-79","TEL":"02-2233-0101"}}],"crs":{"type":"EPSG","properties":{"code":"4326"}}}